gmap_id,url,latitude,longitude,avg_rating,State,state,address
0x80e849691015d7b7:0x314b8627656bc6d5,https://www.google.com/maps/place//data=!4m2!3m1!1s0x80e849691015d7b7:0x314b8627656bc6d5?authuser=-1&hl=en&gl=us,34.2151006,-119.0688134,4.5,CA,Open ⋅ Closes 7PM,"Ulta Beauty, 500 Ventura Blvd Ste 1514, Camarillo, CA 93010"
0x89e7ad0b7da12a11:0x2cab11e09a406d3a,https://www.google.com/maps/place//data=!4m2!3m1!1s0x89e7ad0b7da12a11:0x2cab11e09a406d3a?authuser=-1&hl=en&gl=us,41.719117999999995,-72.760741,4.2,CT,Closed ⋅ Opens 10AM,"Ulta Beauty, 1555 New Britain Ave, West Hartford, CT 06110"
0x89c2d130d433cc0b:0xb550e43a7ce3540,https://www.google.com/maps/place//data=!4m2!3m1!1s0x89c2d130d433cc0b:0xb550e43a7ce3540?authuser=-1&hl=en&gl=us,41.3146128,-74.1331232,4.6,NY,Closed ⋅ Opens 11AM,"Ulta Beauty, 9 Centre Dr, Woodbury, NY 10917"
0x89c30355aba7b017:0x3735266fb77aee42,https://www.google.com/maps/place//data=!4m2!3m1!1s0x89c30355aba7b017:0x3735266fb77aee42?authuser=-1&hl=en&gl=us,40.9600015,-74.2295226,3.7,NJ,Closed ⋅ Opens 11AM,"Ulta Beauty, 914 Hamburg Turnpike, Wayne, NJ 07470"
0x89b62b6664208fed:0x5c970eed3a4cec49,https://www.google.com/maps/place//data=!4m2!3m1!1s0x89b62b6664208fed:0x5c970eed3a4cec49?authuser=-1&hl=en&gl=us,39.2035384,-77.2481349,4.6,MD,Closed ⋅ Opens 10AM,"Ulta Beauty, 20938 Frederick Rd, Germantown, MD 20874"
0x89c39bff14375f07:0xc5ee9c1210c05e9a,https://www.google.com/maps/place//data=!4m2!3m1!1s0x89c39bff14375f07:0xc5ee9c1210c05e9a?authuser=-1&hl=en&gl=us,40.7783525,-74.6974616,4.8,NJ,Closed ⋅ Opens 10AM,"Ulta Beauty, 213 US-206 Ste 380, Chester, NJ 07930"
0x54c8d5e692d7ae15:0x29cf0300c7eb68ce,https://www.google.com/maps/place//data=!4m2!3m1!1s0x54c8d5e692d7ae15:0x29cf0300c7eb68ce?authuser=-1&hl=en&gl=us,42.2090745,-121.7555814,3.6,OR,Open ⋅ Closes 8PM,"Ulta Beauty, 2870 S 6th St, Klamath Falls, OR 97603"
0x89e8bfb8c1c6ea03:0x26dba039722009e0,https://www.google.com/maps/place//data=!4m2!3m1!1s0x89e8bfb8c1c6ea03:0x26dba039722009e0?authuser=-1&hl=en&gl=us,40.9341144,-72.3171619,4.1,NY,Closed ⋅ Opens 10AM Mon,"Ulta Beauty, 2044 Montauk Hwy Ste 54, Water Mill, NY 11976"
0x88c2c39fe4d578a9:0x6189d55364509b43,https://www.google.com/maps/place//data=!4m2!3m1!1s0x88c2c39fe4d578a9:0x6189d55364509b43?authuser=-1&hl=en&gl=us,27.957648499999998,-82.5081821,4.1,FL,Closed ⋅ Opens 10AM Mon,"Ulta Beauty, 1702 N Dale Mabry Hwy Space 1702A, Tampa, FL 33607"
0x88626770c6f52645:0x509b4f1c55e02490,https://www.google.com/maps/place//data=!4m2!3m1!1s0x88626770c6f52645:0x509b4f1c55e02490?authuser=-1&hl=en&gl=us,34.7490222,-86.75570859999999,4.6,AL,Closed ⋅ Opens 10AM,"Ulta Beauty, 8201 Lee Hwy, Hwy 72 W, Madison, AL 35758"
0x89e4bc81e70c1451:0x718ba1be3e35898a,https://www.google.com/maps/place//data=!4m2!3m1!1s0x89e4bc81e70c1451:0x718ba1be3e35898a?authuser=-1&hl=en&gl=us,41.9538248,-70.7128949,4.3,MA,Closed ⋅ Opens 10AM,"Ulta Beauty, 188 Colony Pl, Plymouth, MA 02360"
0x87f43a7a4e647ce7:0xb990c473b8e85463,https://www.google.com/maps/place//data=!4m2!3m1!1s0x87f43a7a4e647ce7:0xb990c473b8e85463?authuser=-1&hl=en&gl=us,44.172532,-93.9521268,4.1,MN,Closed ⋅ Opens 10AM Sat,"Ulta Beauty, 1850 Adams St Ste 100, Mankato, MN 56001"
0x80c34bbe0919c561:0x4b279e03dbdd8fc1,https://www.google.com/maps/place//data=!4m2!3m1!1s0x80c34bbe0919c561:0x4b279e03dbdd8fc1?authuser=-1&hl=en&gl=us,34.1076888,-117.5395839,4.1,CA,Open ⋅ Closes 9PM,"Ulta Beauty, 12188 Foothill Blvd Ste 100, Rancho Cucamonga, CA 91739"
0x549f88262755026d:0x85c10dc33c648934,https://www.google.com/maps/place//data=!4m2!3m1!1s0x549f88262755026d:0x85c10dc33c648934?authuser=-1&hl=en&gl=us,46.7343961,-117.0264954,4.2,ID,Open ⋅ Closes 9PM,"Ulta Beauty, 1730 W Pullman Rd, Moscow, ID 83843"
0x89c1879ce42ea40d:0xdb5908f8d4ef0886,https://www.google.com/maps/place//data=!4m2!3m1!1s0x89c1879ce42ea40d:0xdb5908f8d4ef0886?authuser=-1&hl=en&gl=us,40.155792,-74.0561807,4.3,NJ,Open ⋅ Closes 9PM,"Ulta Beauty, 1933 River Road, NJ-35, Wall Township, NJ 07719"
0x88388f323eb6aaab:0x57fb8bd31aca0a82,https://www.google.com/maps/place//data=!4m2!3m1!1s0x88388f323eb6aaab:0x57fb8bd31aca0a82?authuser=-1&hl=en&gl=us,39.2209894,-85.8866875,4.2,IN,Open ⋅ Closes 9PM,"Ulta Beauty, 3200 Columbus People Trail, Columbus, IN 47203"
0x8632d528f6d437a5:0x3c2b0e8f2d86c3e2,https://www.google.com/maps/place//data=!4m2!3m1!1s0x8632d528f6d437a5:0x3c2b0e8f2d86c3e2?authuser=-1&hl=en&gl=us,34.4611118,-93.060513,4.5,AR,Open ⋅ Closes 9PM,"Ulta Beauty, 231 Cornerstone Blvd, Hot Springs, AR 71913"
0x5495728b86a037fb:0xb530bc240a174a3c,https://www.google.com/maps/place//data=!4m2!3m1!1s0x5495728b86a037fb:0xb530bc240a174a3c?authuser=-1&hl=en&gl=us,45.3842479,-122.7506722,4.1,OR,Open ⋅ Closes 9PM,"Ulta Beauty, 7081 SW Nyberg St, Tualatin, OR 97062"
0x54994740f3e4a15d:0x194a0b8f4559b15f,https://www.google.com/maps/place//data=!4m2!3m1!1s0x54994740f3e4a15d:0x194a0b8f4559b15f?authuser=-1&hl=en&gl=us,47.142281999999994,-119.2787807,4.3,WA,Open ⋅ Closes 9PM,"Ulta Beauty, 1030 N Stratford Rd, Moses Lake, WA 98837"
0x87befdda22a09025:0x7c34e6ca036879be,https://www.google.com/maps/place//data=!4m2!3m1!1s0x87befdda22a09025:0x7c34e6ca036879be?authuser=-1&hl=en&gl=us,39.0350122,-95.7586412,4.4,KS,Open ⋅ Closes 9PM,"Ulta Beauty, 1740 SW Wanamaker Rd Ste 300, Topeka, KS 66604"
0x8830935bad81a517:0x1606fb68c0dd24ca,https://www.google.com/maps/place//data=!4m2!3m1!1s0x8830935bad81a517:0x1606fb68c0dd24ca?authuser=-1&hl=en&gl=us,41.4657681,-81.95250759999999,4.4,OH,Open ⋅ Closes 9PM,"Ulta Beauty, 30014 Detroit Rd Ste 220, Westlake, OH 44145"
0x89c6cbbebd9789bf:0xddfe5a5440d73af2,https://www.google.com/maps/place//data=!4m2!3m1!1s0x89c6cbbebd9789bf:0xddfe5a5440d73af2?authuser=-1&hl=en&gl=us,39.9262833,-75.0347072,4.1,NJ,Open ⋅ Closes 9PM,"Ulta Beauty, 907 Haddonfield Rd, Cherry Hill, NJ 08002"
0x880fc7f4d19ff7c7:0x1888c3028bac4771,https://www.google.com/maps/place//data=!4m2!3m1!1s0x880fc7f4d19ff7c7:0x1888c3028bac4771?authuser=-1&hl=en&gl=us,42.108351299999995,-87.8025017,4.2,IL,Open ⋅ Closes 9PM,"Ulta Beauty, 936 Willow Rd Ste C, Northbrook, IL 60062"
0x80dcf16f6a8bbe25:0x192172bd44b90da6,https://www.google.com/maps/place//data=!4m2!3m1!1s0x80dcf16f6a8bbe25:0x192172bd44b90da6?authuser=-1&hl=en&gl=us,33.4563835,-117.6561088,4.2,CA,Closed ⋅ Opens 10AM,"Ulta Beauty, 510 Camino De Estrella, San Clemente, CA 92672"
0x89ca8f885447fff3:0x99efea0b7c49c86f,https://www.google.com/maps/place//data=!4m2!3m1!1s0x89ca8f885447fff3:0x99efea0b7c49c86f?authuser=-1&hl=en&gl=us,39.6276489,-78.8348529,4.2,MD,Closed ⋅ Opens 11AM,"Ulta Beauty, 1262 Vocke Rd Ste 220, La Vale, MD 21502"
0x89e848fe64ce4f83:0x74857e8e3984210d,https://www.google.com/maps/place//data=!4m2!3m1!1s0x89e848fe64ce4f83:0x74857e8e3984210d?authuser=-1&hl=en&gl=us,40.7765905,-73.03610669999999,4.2,NY,Closed ⋅ Opens 10AM,"Ulta Beauty, 499 Sunrise Hwy, Patchogue, NY 11772"
0x80daf727d197ac05:0xf7ac9fd1d54c3df4,https://www.google.com/maps/place//data=!4m2!3m1!1s0x80daf727d197ac05:0xf7ac9fd1d54c3df4?authuser=-1&hl=en&gl=us,33.7407172,-116.2165186,4.6,CA,Closed ⋅ Opens 10AM,"Ulta Beauty, 42350 Jackson St, Indio, CA 92203"
0x89e653bf31c5f9ab:0x9659e4ac4e64721c,https://www.google.com/maps/place//data=!4m2!3m1!1s0x89e653bf31c5f9ab:0x9659e4ac4e64721c?authuser=-1&hl=en&gl=us,41.6940065,-72.6577715,4.3,CT,Closed ⋅ Opens 10AM,"Ulta Beauty, 1053 Silas Deane Hwy, Wethersfield, CT 06109"
0x88d92f3897c94b4f:0xc0655cbea7e2cc30,https://www.google.com/maps/place//data=!4m2!3m1!1s0x88d92f3897c94b4f:0xc0655cbea7e2cc30?authuser=-1&hl=en&gl=us,26.663605699999998,-80.2008833,4.2,FL,Closed ⋅ Opens 10AM,"Ulta Beauty, 1020 S State Rd 7, Wellington, FL 33414"
0x56c8942452d84811:0xe5c4b11a9df014e6,https://www.google.com/maps/place//data=!4m2!3m1!1s0x56c8942452d84811:0xe5c4b11a9df014e6?authuser=-1&hl=en&gl=us,61.2297133,-149.7365987,4.2,AK,Closed ⋅ Opens 10AM Fri,"Ulta Beauty, 1068 North Muldoon Road Ste 100, Anchorage, AK 99504"
0x89e5aeb4781327db:0x39f11aa7bed613ee,https://www.google.com/maps/place//data=!4m2!3m1!1s0x89e5aeb4781327db:0x39f11aa7bed613ee?authuser=-1&hl=en&gl=us,41.534107999999996,-71.2909869,4.0,RI,Closed ⋅ Opens 10AM,"Ulta Beauty, 1307 W Main Rd Spc 6B, Middletown, RI 02842"
0x880eea4e2e69579f:0x71585725d57ea47a,https://www.google.com/maps/place//data=!4m2!3m1!1s0x880eea4e2e69579f:0x71585725d57ea47a?authuser=-1&hl=en&gl=us,41.664744400000004,-88.4646896,4.1,IL,Closed ⋅ Opens 10AM Fri,"Ulta Beauty, 955 Erica Ln, Yorkville, IL 60560"
0x89c3d42532ca8baf:0xa69d15d499919f34,https://www.google.com/maps/place//data=!4m2!3m1!1s0x89c3d42532ca8baf:0xa69d15d499919f34?authuser=-1&hl=en&gl=us,40.2525264,-74.3003964,4.0,NJ,Closed ⋅ Opens 11AM Fri,"Ulta Beauty, 3710 U.S. 9 Ste B100, Freehold, NJ 07728"
0x88002162a3492b83:0x8d1498305df2658e,https://www.google.com/maps/place//data=!4m2!3m1!1s0x88002162a3492b83:0x8d1498305df2658e?authuser=-1&hl=en&gl=us,44.9249586,-89.6514883,4.1,WI,Open ⋅ Closes 9PM,"Ulta Beauty, 3555 Rib Mountain Dr, Wausau, WI 54401"
0x872a6ff6df7e31db:0x702113bb22fc19c2,https://www.google.com/maps/place//data=!4m2!3m1!1s0x872a6ff6df7e31db:0x702113bb22fc19c2?authuser=-1&hl=en&gl=us,32.8840034,-111.6818404,4.3,AZ,Open ⋅ Closes 9PM,"Ulta Beauty, 1004 N Promenade Pkwy Ste 136, Casa Grande, AZ 85194"
0x88ff678fdf87b951:0xa7828dd7c00a62e5,https://www.google.com/maps/place//data=!4m2!3m1!1s0x88ff678fdf87b951:0xa7828dd7c00a62e5?authuser=-1&hl=en&gl=us,33.9553691,-80.38863169999999,4.6,SC,Open ⋅ Closes 9PM,"Ulta Beauty, 1288 Broad St, Sumter, SC 29150"
0x88f58533492249c1:0x5b0cbf923ce6a0d6,https://www.google.com/maps/place//data=!4m2!3m1!1s0x88f58533492249c1:0x5b0cbf923ce6a0d6?authuser=-1&hl=en&gl=us,34.194785599999996,-84.12872349999999,3.7,GA,Open ⋅ Closes 9PM,"Ulta Beauty, 2295 Market Pl Blvd, Cumming, GA 30040"
0x89e389817ec44871:0x8c98a39f95381fcf,https://www.google.com/maps/place//data=!4m2!3m1!1s0x89e389817ec44871:0x8c98a39f95381fcf?authuser=-1&hl=en&gl=us,42.300665599999995,-71.3964465,4.3,MA,Open ⋅ Closes 9PM,"Ulta Beauty, 1 Worcester Rd Ste 515B, Framingham, MA 01701"
0x88672370ce97f43f:0xc831d995840f6fa3,https://www.google.com/maps/place//data=!4m2!3m1!1s0x88672370ce97f43f:0xc831d995840f6fa3?authuser=-1&hl=en&gl=us,36.1387303,-85.50679219999999,4.4,TN,Open ⋅ Closes 9PM,"Ulta Beauty, 1265 Interstate Dr Ste 119, Cookeville, TN 38501"
0x89d0825a0a93a329:0x76b52d4eed64ccca,https://www.google.com/maps/place//data=!4m2!3m1!1s0x89d0825a0a93a329:0x76b52d4eed64ccca?authuser=-1&hl=en&gl=us,42.4821479,-76.49037489999999,4.0,NY,Open ⋅ Closes 8PM,"Ulta Beauty, 40 Catherwood Rd, Lansing, NY 14850"
0x80dce086039a433d:0xf2df2336b87f04,https://www.google.com/maps/place//data=!4m2!3m1!1s0x80dce086039a433d:0xf2df2336b87f04?authuser=-1&hl=en&gl=us,33.6163723,-117.87392969999999,4.0,CA,Open ⋅ Closes 9PM,"Ulta Beauty, 427 Newport Center Dr, Newport Beach, CA 92660"
0x88db6b507476f9e9:0x711c0932b482976d,https://www.google.com/maps/place//data=!4m2!3m1!1s0x88db6b507476f9e9:0x711c0932b482976d?authuser=-1&hl=en&gl=us,26.6072885,-81.8137256,4.8,FL,Opens soon ⋅ 10AM,"Ulta Beauty, 9370 6 Mile Cypress Pkwy Unit #5, Fort Myers, FL 33966"
0x8620a6feea733329:0xabee5aac871b2d8b,https://www.google.com/maps/place//data=!4m2!3m1!1s0x8620a6feea733329:0xabee5aac871b2d8b?authuser=-1&hl=en&gl=us,29.9218925,-90.03923449999999,4.3,LA,Permanently closed,"Ulta Beauty, 197 Westbank Expy #1330, Gretna, LA 70053"
0x864e9e619b3ac561:0x4f9fe23013c83b66,https://www.google.com/maps/place//data=!4m2!3m1!1s0x864e9e619b3ac561:0x4f9fe23013c83b66?authuser=-1&hl=en&gl=us,32.850641599999996,-96.8186279,4.1,TX,Closed ⋅ Opens 10AM,"Ulta Beauty, 5550 W Lovers Ln Ste 148, Dallas, TX 75209"
0x88f5dd4f760652e5:0x3bd180900f870bb3,https://www.google.com/maps/place//data=!4m2!3m1!1s0x88f5dd4f760652e5:0x3bd180900f870bb3?authuser=-1&hl=en&gl=us,33.943246099999996,-83.7520744,4.6,GA,Closed ⋅ Opens 10AM,"Ulta Beauty, 916 Loganville Hwy Ste 1300, Bethlehem, GA 30620"
0x8085b3f896717a4f:0x9e7ab78286d90e8f,https://www.google.com/maps/place//data=!4m2!3m1!1s0x8085b3f896717a4f:0x9e7ab78286d90e8f?authuser=-1&hl=en&gl=us,38.2446947,-122.6259886,3.8,CA,Closed ⋅ Opens 10AM,"Ulta Beauty, 401 Kenilworth Dr STE 520, Petaluma, CA 94952"
0x873b8f313c152dcf:0xa4e7da38659f09d8,https://www.google.com/maps/place//data=!4m2!3m1!1s0x873b8f313c152dcf:0xa4e7da38659f09d8?authuser=-1&hl=en&gl=us,36.7624436,-108.1518507,3.9,NM,Closed ⋅ Opens 11AM,"Ulta Beauty, 4601 E Main St Ste 1130, Farmington, NM 87402"
0x88dc5795efd9f2fd:0x2e2c67a58a1106c7,https://www.google.com/maps/place//data=!4m2!3m1!1s0x88dc5795efd9f2fd:0x2e2c67a58a1106c7?authuser=-1&hl=en&gl=us,27.499325199999998,-81.4865997,4.4,FL,Closed ⋅ Opens 10AM,"Ulta Beauty, 1736 US Hwy 27 N, Sebring, FL 33870"
0x87d7b08a7494478d:0x8f21900684e1078,https://www.google.com/maps/place//data=!4m2!3m1!1s0x87d7b08a7494478d:0x8f21900684e1078?authuser=-1&hl=en&gl=us,36.762770499999995,-90.41289139999999,4.3,MO,Closed ⋅ Opens 10AM,"Ulta Beauty, 797 N Westwood Blvd, Poplar Bluff, MO 63901"
0x80946f18448695c1:0xa4e8fb865009e976,https://www.google.com/maps/place//data=!4m2!3m1!1s0x80946f18448695c1:0xa4e8fb865009e976?authuser=-1&hl=en&gl=us,36.833096399999995,-119.9113127,4.2,CA,Closed ⋅ Opens 10AM Thu,"Ulta Beauty, 6587 N Riverside Dr, Fresno, CA 93722"
0x808577a7ce822e91:0xc2a94739b232f0e0,https://www.google.com/maps/place//data=!4m2!3m1!1s0x808577a7ce822e91:0xc2a94739b232f0e0?authuser=-1&hl=en&gl=us,37.9848602,-122.3132942,4.2,CA,Closed ⋅ Opens 10AM Thu,"Ulta Beauty, 1216 Fitzgerald Dr, Pinole, CA 94564"
0x89c80f0537d1342d:0x9a845d4e7c0060ee,https://www.google.com/maps/place//data=!4m2!3m1!1s0x89c80f0537d1342d:0x9a845d4e7c0060ee?authuser=-1&hl=en&gl=us,39.397765299999996,-76.5840697,4.0,MD,Closed ⋅ Opens 10AM,"Ulta Beauty, 803 Goucher Blvd Ste 301, Towson, MD 21286"
0x80c2d980af465d05:0xb3658f28ee3c13dc,https://www.google.com/maps/place//data=!4m2!3m1!1s0x80c2d980af465d05:0xb3658f28ee3c13dc?authuser=-1&hl=en&gl=us,34.1414726,-117.98927239999999,4.0,CA,Closed ⋅ Opens 10AM Thu,"Ulta Beauty, 729 E Huntington Dr, Monrovia, CA 91016"
0x89c6d1d73166c45d:0x80da2844ced834a5,https://www.google.com/maps/place//data=!4m2!3m1!1s0x89c6d1d73166c45d:0x80da2844ced834a5?authuser=-1&hl=en&gl=us,39.8254029,-75.0983218,4.1,NJ,Closed ⋅ Opens 10AM Thu,"Ulta Beauty, 1555 Almonesson Rd Ste B, Deptford, NJ 08096"
0x88388e6da42a9513:0xa7e890efceacf7f3,https://www.google.com/maps/place//data=!4m2!3m1!1s0x88388e6da42a9513:0xa7e890efceacf7f3?authuser=-1&hl=en&gl=us,40.0065855,-83.0545403,4.4,OH,Closed ⋅ Opens 10AM Thu,"Ulta Beauty, 1645 W Lane Ave, Columbus, OH 43221"
0x87220ddb59291a7d:0xc8183901d89e27c6,https://www.google.com/maps/place//data=!4m2!3m1!1s0x87220ddb59291a7d:0xc8183901d89e27c6?authuser=-1&hl=en&gl=us,35.0240882,-106.7132434,4.5,NM,Closed ⋅ Opens 10AM Thu,"Ulta Beauty, 3700 Las Estancias Way Unit C, Albuquerque, NM 87121"
0x88d9dd92328f010d:0xb8c03e0083f3fcd8,https://www.google.com/maps/place//data=!4m2!3m1!1s0x88d9dd92328f010d:0xb8c03e0083f3fcd8?authuser=-1&hl=en&gl=us,25.480448799999998,-80.44042499999999,4.4,FL,Closed ⋅ Opens 10AM Thu,"Ulta Beauty, 2601 NE 10th Ct, Homestead, FL 33033"
0x874dbd1f6fd52e81:0xda6420bf418465be,https://www.google.com/maps/place//data=!4m2!3m1!1s0x874dbd1f6fd52e81:0xda6420bf418465be?authuser=-1&hl=en&gl=us,40.1270378,-111.6420953,4.3,UT,Closes soon ⋅ 8PM ⋅ Opens 10AM Thu,"Ulta Beauty, 1259 Canyon Creek Pkwy, Spanish Fork, UT 84660"
0x872b0fa5c59dc94d:0x177bac3a8f9dde4b,https://www.google.com/maps/place//data=!4m2!3m1!1s0x872b0fa5c59dc94d:0x177bac3a8f9dde4b?authuser=-1&hl=en&gl=us,33.379464399999996,-112.03634509999999,4.3,AZ,Open ⋅ Closes 8PM,"Ulta Beauty, 2036 E Baseline Rd, Phoenix, AZ 85042"
0x865c672f46a46013:0x8a305de85b893ade,https://www.google.com/maps/place//data=!4m2!3m1!1s0x865c672f46a46013:0x8a305de85b893ade?authuser=-1&hl=en&gl=us,29.550844299999998,-98.5819985,4.2,TX,Open ⋅ Closes 8PM,"Ulta Beauty, 11745 McDermott Freeway, 701 I-10 Ste, San Antonio, TX 78230"
0x87b68bb35d59b4e1:0x9ef0e703a52d6f22,https://www.google.com/maps/place//data=!4m2!3m1!1s0x87b68bb35d59b4e1:0x9ef0e703a52d6f22?authuser=-1&hl=en&gl=us,36.0674205,-95.77368469999999,4.4,OK,Open ⋅ Closes 8PM,"Ulta Beauty, 1520 E Hillside Dr, Broken Arrow, OK 74012"
0x8816e9916be9a2f7:0x9ee6eefd086f8612,https://www.google.com/maps/place//data=!4m2!3m1!1s0x8816e9916be9a2f7:0x9ee6eefd086f8612?authuser=-1&hl=en&gl=us,41.6216812,-85.90387299999999,4.4,IN,Open ⋅ Closes 8PM,"Ulta Beauty, 3818 Midway Rd, Goshen, IN 46526"
0x89c133080894d907:0x457d462952082336,https://www.google.com/maps/place//data=!4m2!3m1!1s0x89c133080894d907:0x457d462952082336?authuser=-1&hl=en&gl=us,39.869827699999995,-74.92108,4.4,NJ,Open ⋅ Closes 8PM,"Ulta Beauty, 720 NJ-73, Evesham, NJ 08053"
0x864e725c48ca5cd9:0xa1719b85ecceecbf,https://www.google.com/maps/place//data=!4m2!3m1!1s0x864e725c48ca5cd9:0xa1719b85ecceecbf?authuser=-1&hl=en&gl=us,32.7065141,-97.3897054,4.2,TX,Closed ⋅ Opens 10AM,"Ulta Beauty, 3000 S Hulen St Ste 130, Fort Worth, TX 76109"
0x880e2ca358cc8e5d:0x9dc20359b5bb3630,https://www.google.com/maps/place//data=!4m2!3m1!1s0x880e2ca358cc8e5d:0x9dc20359b5bb3630?authuser=-1&hl=en&gl=us,41.8802641,-87.62815669999999,3.9,IL,Permanently closed,"Ulta Beauty, 114 S State St, Chicago, IL 60603"
0x8875477ba6ca7da3:0xe52278f8cc3be314,https://www.google.com/maps/place//data=!4m2!3m1!1s0x8875477ba6ca7da3:0xe52278f8cc3be314?authuser=-1&hl=en&gl=us,39.7683713,-89.7090164,4.0,IL,Closed ⋅ Opens 10AM,"Ulta Beauty, 2733 S Veterans Pkwy, Springfield, IL 62704"
0x80dceb07824add5b:0xb6de8fc24de211d6,https://www.google.com/maps/place//data=!4m2!3m1!1s0x80dceb07824add5b:0xb6de8fc24de211d6?authuser=-1&hl=en&gl=us,33.6428478,-117.59616989999999,4.3,CA,Closed ⋅ Opens 10AM,"Ulta Beauty, 30682 Santa Margarita Pkwy, Rancho Santa Margarita, CA 92688"
0x863ab52c13d72fbb:0xd441a3bed94961f5,https://www.google.com/maps/place//data=!4m2!3m1!1s0x863ab52c13d72fbb:0xd441a3bed94961f5?authuser=-1&hl=en&gl=us,31.277234099999998,-92.46127849999999,3.9,LA,Closed ⋅ Opens 11AM,"Ulta Beauty, 3435 Masonic Dr Ste 1236, Alexandria, LA 71301"
0x8805428428e55f55:0x597ad5743f2d948a,https://www.google.com/maps/place//data=!4m2!3m1!1s0x8805428428e55f55:0x597ad5743f2d948a?authuser=-1&hl=en&gl=us,42.721525199999995,-87.8481181,4.3,WI,Closed ⋅ Opens 10AM,"Ulta Beauty, 5630 Washington Ave Unit 131, Mt Pleasant, WI 53406"
0x87afd258ceccdb0d:0x182166c80c81a863,https://www.google.com/maps/place//data=!4m2!3m1!1s0x87afd258ceccdb0d:0x182166c80c81a863?authuser=-1&hl=en&gl=us,36.392878599999996,-97.9331617,4.4,OK,Closed ⋅ Opens 10AM,"Ulta Beauty, 4408 W Owen K Garriott Rd STE A, Enid, OK 73703"
0x87b71391ecd5d699:0x8218ac1e560c6043,https://www.google.com/maps/place//data=!4m2!3m1!1s0x87b71391ecd5d699:0x8218ac1e560c6043?authuser=-1&hl=en&gl=us,36.7413454,-95.9492042,4.3,OK,Closed ⋅ Opens 10AM,"Ulta Beauty, 2423 SE Adams Blvd, Bartlesville, OK 74006"
0x87d9492d89038ec1:0x645544d2d0fa257e,https://www.google.com/maps/place//data=!4m2!3m1!1s0x87d9492d89038ec1:0x645544d2d0fa257e?authuser=-1&hl=en&gl=us,38.5328482,-90.97894629999999,4.3,MO,Closed ⋅ Opens 10AM Wed,"Ulta Beauty, 1956 Charlotte's Way, Washington, MO 63090"
0x88585f469083041f:0xc21bf48f12f9fc4c,https://www.google.com/maps/place//data=!4m2!3m1!1s0x88585f469083041f:0xc21bf48f12f9fc4c?authuser=-1&hl=en&gl=us,34.6908436,-82.85804379999999,4.3,SC,Closed ⋅ Opens 10AM Wed,"Ulta Beauty, 13350 Clemson Blvd, Seneca, SC 29678"
0x880fbb0e296fc935:0xb789d2ad3e6b7eb9,https://www.google.com/maps/place//data=!4m2!3m1!1s0x880fbb0e296fc935:0xb789d2ad3e6b7eb9?authuser=-1&hl=en&gl=us,42.1126605,-87.982209,4.3,IL,Open ⋅ Closes 8PM,"Ulta Beauty, 13 W Rand Rd, Arlington Heights, IL 60004"
0x89e3f3251fe76bd9:0x38a75d0576e1a0cd,https://www.google.com/maps/place//data=!4m2!3m1!1s0x89e3f3251fe76bd9:0x38a75d0576e1a0cd?authuser=-1&hl=en&gl=us,42.392697999999996,-71.59438639999999,4.3,MA,Open ⋅ Closes 8PM,"Ulta Beauty, 16 Highland Common E, Hudson, MA 01749"
0x87e2366e08f9588d:0xb74d7a6fe82aa2b1,https://www.google.com/maps/place//data=!4m2!3m1!1s0x87e2366e08f9588d:0xb74d7a6fe82aa2b1?authuser=-1&hl=en&gl=us,41.577194,-90.5160216,4.2,IA,Open ⋅ Closes 8PM,"Ulta Beauty, 4016 E 53rd St, Davenport, IA 52807"
0x88357be1549bf96f:0xff8d427f62837d0,https://www.google.com/maps/place//data=!4m2!3m1!1s0x88357be1549bf96f:0xff8d427f62837d0?authuser=-1&hl=en&gl=us,39.6478191,-80.0034891,4.1,WV,Open ⋅ Closes 8PM,"Ulta Beauty, 1010 Giant St, Morgantown, WV 26501"
0x876c81e4f574cbcf:0x72cdbb2bc721c72f,https://www.google.com/maps/place//data=!4m2!3m1!1s0x876c81e4f574cbcf:0x72cdbb2bc721c72f?authuser=-1&hl=en&gl=us,39.5844826,-105.02532319999999,4.1,CO,Open ⋅ Closes 7PM,"Ulta Beauty, 7301 S Santa Fe Dr Unit 530, Littleton, CO 80120"
0x863b867b2ce90771:0xdd9d8ccec3e1f72c,https://www.google.com/maps/place//data=!4m2!3m1!1s0x863b867b2ce90771:0xdd9d8ccec3e1f72c?authuser=-1&hl=en&gl=us,30.2003044,-93.2251284,4.2,LA,Open ⋅ Closes 8PM,"Ulta Beauty, 316 W Prien Lake Rd, Lake Charles, LA 70601"
0x89b7e0f7b514ee9d:0xd3b2e10bd04103b4,https://www.google.com/maps/place//data=!4m2!3m1!1s0x89b7e0f7b514ee9d:0xd3b2e10bd04103b4?authuser=-1&hl=en&gl=us,39.1850942,-76.7940845,3.8,MD,Open ⋅ Closes 8PM,"Ulta Beauty, 8241 Gateway Overlook Dr, Elkridge, MD 21075"
0x549072b0aa9fcc05:0xeb7610b6f18b7e7a,https://www.google.com/maps/place//data=!4m2!3m1!1s0x549072b0aa9fcc05:0xeb7610b6f18b7e7a?authuser=-1&hl=en&gl=us,47.6722993,-122.11183829999999,4.2,WA,Closed ⋅ Opens 10AM,"Ulta Beauty, 17170 Redmond Way, Redmond, WA 98052"
0x87a4b63ea209eaff:0x889839977d1ffdcf,https://www.google.com/maps/place//data=!4m2!3m1!1s0x87a4b63ea209eaff:0x889839977d1ffdcf?authuser=-1&hl=en&gl=us,38.0682943,-97.89802549999999,4.0,KS,Open ⋅ Closes 8PM,"Ulta Beauty, 1500 E 11th Ave, Hutchinson, KS 67501"
0x8880705d48ecc4f1:0xbadb0cbec189263e,https://www.google.com/maps/place//data=!4m2!3m1!1s0x8880705d48ecc4f1:0xbadb0cbec189263e?authuser=-1&hl=en&gl=us,34.3643257,-89.5694743,4.3,MS,Open ⋅ Closes 8PM,"Ulta Beauty, 600 Merchants Dr, Oxford, MS 38655"
0x880fcf41d1d9cdbf:0x9213629971dd64cf,https://www.google.com/maps/place//data=!4m2!3m1!1s0x880fcf41d1d9cdbf:0x9213629971dd64cf?authuser=-1&hl=en&gl=us,42.0565594,-87.7449745,4.2,IL,Open ⋅ Closes 8PM,"Ulta Beauty, 9635 Skokie Blvd, Skokie, IL 60077"
0x80851426a3c6d431:0xe91f3ce49ee521d3,https://www.google.com/maps/place//data=!4m2!3m1!1s0x80851426a3c6d431:0xe91f3ce49ee521d3?authuser=-1&hl=en&gl=us,38.260384099999996,-122.0546732,4.0,CA,Closed ⋅ Opens 10AM,"Ulta Beauty, 1350 Travis Blvd Unit 1475B, Fairfield, CA 94533"
0x883cf171b7e300a9:0x9c30c698b0293104,https://www.google.com/maps/place//data=!4m2!3m1!1s0x883cf171b7e300a9:0x9c30c698b0293104?authuser=-1&hl=en&gl=us,41.874193,-84.02843109999999,4.3,MI,Closed ⋅ Opens 10AM,"Ulta Beauty, 1651 US-223 Ste B, Adrian, MI 49221"
0x89e2f14311b99549:0x82623797038346a0,https://www.google.com/maps/place//data=!4m2!3m1!1s0x89e2f14311b99549:0x82623797038346a0?authuser=-1&hl=en&gl=us,43.0253546,-71.0780912,4.5,NH,Closed ⋅ Opens 10AM,"Ulta Beauty, 11 Brickyard Square Ste 21, Epping, NH 03042"
0x5361c0e762a750ff:0x967cdde1ae163b6d,https://www.google.com/maps/place//data=!4m2!3m1!1s0x5361c0e762a750ff:0x967cdde1ae163b6d?authuser=-1&hl=en&gl=us,47.735007499999995,-116.79423129999999,4.0,ID,Closed ⋅ Opens 10AM,"Ulta Beauty, 450 W Wilbur Ave, Coeur d'Alene, ID 83815"
0x89e7d0cbb5191eff:0x9333bb1d98029a8,https://www.google.com/maps/place//data=!4m2!3m1!1s0x89e7d0cbb5191eff:0x9333bb1d98029a8?authuser=-1&hl=en&gl=us,41.3530069,-72.8744579,3.9,CT,Permanently closed,"Ulta Beauty, 370 Universal Dr N, North Haven, CT 06473"
0x808e2e2285fae447:0x8b13689e10b3900a,https://www.google.com/maps/place//data=!4m2!3m1!1s0x808e2e2285fae447:0x8b13689e10b3900a?authuser=-1&hl=en&gl=us,37.2491035,-121.80176979999999,4.1,CA,Closed ⋅ Opens 10AM,"Ulta Beauty, 5650 Cottle Rd Ste 20, San Jose, CA 95123"
0x883462a63d203419:0x74ea4b6a6d9e2c09,https://www.google.com/maps/place//data=!4m2!3m1!1s0x883462a63d203419:0x74ea4b6a6d9e2c09?authuser=-1&hl=en&gl=us,40.6826151,-80.1036531,4.2,PA,Closed ⋅ Opens 10AM,"Ulta Beauty, 20111 Perry Hwy, Rte 19 Ste 110, Cranberry Twp, PA 16066"
0x87c0dd32c7634ab7:0xa3e74a017bc11cff,https://www.google.com/maps/place//data=!4m2!3m1!1s0x87c0dd32c7634ab7:0xa3e74a017bc11cff?authuser=-1&hl=en&gl=us,38.8225625,-94.52744349999999,4.7,MO,Closed ⋅ Opens 10AM,"Ulta Beauty, 551 Markey Pkwy, Belton, MO 64012"
0x80c8d6b410317733:0x89d78bd26d34e5d6,https://www.google.com/maps/place//data=!4m2!3m1!1s0x80c8d6b410317733:0x89d78bd26d34e5d6?authuser=-1&hl=en&gl=us,36.038806699999995,-114.9927905,4.4,NV,Closed ⋅ Opens 10AM,"Ulta Beauty, 300 W Lake Mead Pkwy #130, Henderson, NV 89015"
0x88db17100f390105:0xd395811e26dc0021,https://www.google.com/maps/place//data=!4m2!3m1!1s0x88db17100f390105:0xd395811e26dc0021?authuser=-1&hl=en&gl=us,26.405459,-81.806386,4.2,FL,Closed ⋅ Opens 10AM,"Ulta Beauty, 8054 Mediterranean Drive, Estero, FL 33928"
0x89d6b17e57f4d7d7:0xa69b86a6b78554da,https://www.google.com/maps/place//data=!4m2!3m1!1s0x89d6b17e57f4d7d7:0xa69b86a6b78554da?authuser=-1&hl=en&gl=us,43.2064222,-77.6894454,4.2,NY,Closed ⋅ Opens 10AM,"Ulta Beauty, 462 Greece Ridge Center Dr, Rochester, NY 14626"
0x8886ebd7a692619f:0x3f867a0058002100,https://www.google.com/maps/place//data=!4m2!3m1!1s0x8886ebd7a692619f:0x3f867a0058002100?authuser=-1&hl=en&gl=us,33.5157137,-88.43349219999999,4.2,MS,Closed ⋅ Opens 10AM,"Ulta Beauty, 508 18th Ave N, Columbus, MS 39705"
0x88388a627d2e64b5:0xf34c3de8abec9f22,https://www.google.com/maps/place//data=!4m2!3m1!1s0x88388a627d2e64b5:0xf34c3de8abec9f22?authuser=-1&hl=en&gl=us,40.0522881,-82.924902,3.7,OH,Closed ⋅ Opens 12PM,"Ulta Beauty, 3720 Easton Market, Columbus, OH 43230"
0x87b21a1785ab517f:0xee41ce35aee31845,https://www.google.com/maps/place//data=!4m2!3m1!1s0x87b21a1785ab517f:0xee41ce35aee31845?authuser=-1&hl=en&gl=us,35.524929199999995,-97.5360441,4.0,OK,Closed ⋅ Opens 10AM,"Ulta Beauty, 1700 Belle Isle Blvd, Oklahoma City, OK 73118"
0x865b37ebc039a31b:0x8e1796e3a818fefe,https://www.google.com/maps/place//data=!4m2!3m1!1s0x865b37ebc039a31b:0x8e1796e3a818fefe?authuser=-1&hl=en&gl=us,30.305419399999998,-97.9446368,3.9,TX,Closed ⋅ Opens 10AM,"Ulta Beauty, 12909 Shops Pkwy Ste 400, Bee Cave, TX 78738"
0x88e72777f7c69b2d:0x8e549f07a41a22e1,https://www.google.com/maps/place//data=!4m2!3m1!1s0x88e72777f7c69b2d:0x8e549f07a41a22e1?authuser=-1&hl=en&gl=us,29.1122135,-81.0347002,4.2,FL,Closed ⋅ Opens 10AM,"Ulta Beauty, 5511 S Williamson Blvd Ste 201, Port Orange, FL 32128"
0x88fae3f774351653:0xfcfef03ac4a56fa,https://www.google.com/maps/place//data=!4m2!3m1!1s0x88fae3f774351653:0xfcfef03ac4a56fa?authuser=-1&hl=en&gl=us,31.822855999999998,-81.601835,4.1,GA,Closed ⋅ Opens 10AM,"Ulta Beauty, 863 W Oglethorpe Hwy Ste 104, Hinesville, GA 31313"
0x8856817640c7338d:0x3f868f37e393ad8e,https://www.google.com/maps/place//data=!4m2!3m1!1s0x8856817640c7338d:0x3f868f37e393ad8e?authuser=-1&hl=en&gl=us,34.938732099999996,-80.8348687,4.4,SC,Closed ⋅ Opens 10AM,"Ulta Beauty, 7796 Charlotte Hwy Ste 100, Indian Land, SC 29707"
0x80dcef4bbc4915a1:0x56c658364bc1040e,https://www.google.com/maps/place//data=!4m2!3m1!1s0x80dcef4bbc4915a1:0x56c658364bc1040e?authuser=-1&hl=en&gl=us,33.5695271,-117.71235569999999,4.4,CA,Closed ⋅ Opens 10AM Tue,"Ulta Beauty, 27080 Alicia Pkwy Ste B, Laguna Niguel, CA 92677"
0x88f8b004d3b876b9:0x3e1f087b5b19a157,https://www.google.com/maps/place//data=!4m2!3m1!1s0x88f8b004d3b876b9:0x3e1f087b5b19a157?authuser=-1&hl=en&gl=us,33.9930374,-80.9752128,4.1,SC,Closed ⋅ Opens 10AM,"Ulta Beauty, 702 Cross Hill Rd Suite 300C, Columbia, SC 29205"
0x87e4f10976e97cb3:0xff9aa4a164343111,https://www.google.com/maps/place//data=!4m2!3m1!1s0x87e4f10976e97cb3:0xff9aa4a164343111?authuser=-1&hl=en&gl=us,42.023344699999996,-91.6216086,4.3,IA,Closed ⋅ Opens 10AM Tue,"Ulta Beauty, 4651 1st Ave SE Ste 3, Cedar Rapids, IA 52402"
0x864e2183b2b97d1f:0x2358817be298ed97,https://www.google.com/maps/place//data=!4m2!3m1!1s0x864e2183b2b97d1f:0x2358817be298ed97?authuser=-1&hl=en&gl=us,32.4386703,-97.76692779999999,4.3,TX,Closed ⋅ Opens 10AM Tue,"Ulta Beauty, 1410 E US Hwy 377, Granbury, TX 76048"
0x52b3236eaf105175:0x8393439a89fcfab0,https://www.google.com/maps/place//data=!4m2!3m1!1s0x52b3236eaf105175:0x8393439a89fcfab0?authuser=-1&hl=en&gl=us,45.181235,-93.2361945,4.3,MN,Closed ⋅ Opens 10AM Tue,"Ulta Beauty, 11633 Ulysses Ln NE Ste 300, Blaine, MN 55434"
0x864e890b254d8a15:0x79b34c6510a2643,https://www.google.com/maps/place//data=!4m2!3m1!1s0x864e890b254d8a15:0x79b34c6510a2643?authuser=-1&hl=en&gl=us,32.7566121,-97.10043209999999,3.9,TX,Closed ⋅ Opens 10AM Tue,"Ulta Beauty, 3166 South State Highway 161 Ste 150, Grand Prairie, TX 75052"
0x880e29718ddc36e1:0xbaf4e05bd1172021,https://www.google.com/maps/place//data=!4m2!3m1!1s0x880e29718ddc36e1:0xbaf4e05bd1172021?authuser=-1&hl=en&gl=us,41.799946899999995,-87.5878506,4.0,IL,Closed ⋅ Opens 10AM Tue,"Ulta Beauty, 5228 S Lake Park Ave, Chicago, IL 60615"
0x8854b48a4fb234e9:0x9905f1bbdb285b3e,https://www.google.com/maps/place//data=!4m2!3m1!1s0x8854b48a4fb234e9:0x9905f1bbdb285b3e?authuser=-1&hl=en&gl=us,35.171350499999996,-79.42124539999999,4.4,NC,Closed ⋅ Opens 10AM Tue,"Ulta Beauty, 174 Brucewood Rd, Southern Pines, NC 28387"
0x89e85b0462c40323:0x58489e65d001255,https://www.google.com/maps/place//data=!4m2!3m1!1s0x89e85b0462c40323:0x58489e65d001255?authuser=-1&hl=en&gl=us,40.8030985,-72.8595687,4.1,NY,Closed ⋅ Opens 10AM Tue,"Ulta Beauty, 1017 Montauk Hwy Ste 2, Shirley, NY 11967"
0x549041677a79caab:0xff3c68fef5b197b3,https://www.google.com/maps/place//data=!4m2!3m1!1s0x549041677a79caab:0xff3c68fef5b197b3?authuser=-1&hl=en&gl=us,47.521465799999994,-122.3674961,4.2,WA,Open ⋅ Closes 6PM,"Ulta Beauty, 2600 SW Barton St Ste B18, Seattle, WA 98126"
0x808f91ce0bd2e4bb:0xa2aabf6c8d3c3c35,https://www.google.com/maps/place//data=!4m2!3m1!1s0x808f91ce0bd2e4bb:0xa2aabf6c8d3c3c35?authuser=-1&hl=en&gl=us,37.701273,-122.12480219999999,3.9,CA,Open ⋅ Closes 6PM,"Ulta Beauty, 15555 E 14th St Ste 106, San Leandro, CA 94578"
0x864c33f817b7e87b:0x257c4497264f8d93,https://www.google.com/maps/place//data=!4m2!3m1!1s0x864c33f817b7e87b:0x257c4497264f8d93?authuser=-1&hl=en&gl=us,33.063443,-97.0823221,4.1,TX,Open ⋅ Closes 6PM,"Ulta Beauty, 5801 Long Prairie Rd Ste 120, Flower Mound, TX 75028"
0x80e82eb5a58ef6af:0x3dc0fc9cee8800fd,https://www.google.com/maps/place//data=!4m2!3m1!1s0x80e82eb5a58ef6af:0x3dc0fc9cee8800fd?authuser=-1&hl=en&gl=us,34.2844036,-118.76984189999999,4.1,CA,Open ⋅ Closes 6PM,"Ulta Beauty, 1555 Simi Town Center Way Suite 600, Simi Valley, CA 93065"
0x883093a060f7b667:0x7752359bf2238c48,https://www.google.com/maps/place//data=!4m2!3m1!1s0x883093a060f7b667:0x7752359bf2238c48?authuser=-1&hl=en&gl=us,41.4168063,-81.91038739999999,4.2,OH,Open ⋅ Closes 6PM,"Ulta Beauty, 25907 Brookpark Rd Unit 16, North Olmsted, OH 44070"
0x8836d6ca1199fcd3:0xd173ea92aed2fd57,https://www.google.com/maps/place//data=!4m2!3m1!1s0x8836d6ca1199fcd3:0xd173ea92aed2fd57?authuser=-1&hl=en&gl=us,40.8615261,-81.4294292,4.1,OH,Open ⋅ Closes 6PM,"Ulta Beauty, 5522 Dressler Rd NW, Canton, OH 44720"
0x87547de81cc5a38d:0x146f73d65868b467,https://www.google.com/maps/place//data=!4m2!3m1!1s0x87547de81cc5a38d:0x146f73d65868b467?authuser=-1&hl=en&gl=us,41.7510684,-111.83238899999999,4.3,UT,Open ⋅ Closes 6PM,"Ulta Beauty, 1050 N Main St Ste 110, Logan, UT 84341"
0x8810c436c08c5c45:0x82fcff088f4bca05,https://www.google.com/maps/place//data=!4m2!3m1!1s0x8810c436c08c5c45:0x82fcff088f4bca05?authuser=-1&hl=en&gl=us,42.0806441,-86.4333588,4.4,MI,Open ⋅ Closes 6PM,"Ulta Beauty, 1000 Fairplain Dr, Benton Harbor, MI 49022"
0x87cf6146434a1f5f:0xa4c9814860360520,https://www.google.com/maps/place//data=!4m2!3m1!1s0x87cf6146434a1f5f:0xa4c9814860360520?authuser=-1&hl=en&gl=us,37.1799264,-93.35728429999999,5.0,MO,Closed ⋅ Opens 10AM,"Ulta Beauty, 3898 W Washita St, Springfield, MO 65807"
0x89c30966eac2b4dd:0x4832071b66534f0b,https://www.google.com/maps/place//data=!4m2!3m1!1s0x89c30966eac2b4dd:0x4832071b66534f0b?authuser=-1&hl=en&gl=us,40.875437,-74.430534,4.3,NJ,Closed ⋅ Opens 10AM,"Ulta Beauty, 46 Waterview Blvd, Parsippany-Troy Hills, NJ 07054"
0x889383e7afd4e7b9:0x10c5f384fd54ae41,https://www.google.com/maps/place//data=!4m2!3m1!1s0x889383e7afd4e7b9:0x10c5f384fd54ae41?authuser=-1&hl=en&gl=us,30.188174999999998,-85.651865,3.8,FL,Closed ⋅ Opens 10AM,"Ulta Beauty, 554 Hawkins Ave, Panama City, FL 32405"
0x80859a189e64bd75:0xff714649a523c287,https://www.google.com/maps/place//data=!4m2!3m1!1s0x80859a189e64bd75:0xff714649a523c287?authuser=-1&hl=en&gl=us,37.9637771,-122.51523979999999,4.2,CA,Permanently closed,"Ulta Beauty, 580 Francisco Blvd W, San Rafael, CA 94901"
0x88c31798c9632c9b:0x164fbff71aa67507,https://www.google.com/maps/place//data=!4m2!3m1!1s0x88c31798c9632c9b:0x164fbff71aa67507?authuser=-1&hl=en&gl=us,27.46359,-82.633066,4.7,FL,Open ⋅ Closes 9PM,"Ulta Beauty, 7110 Cortez Rd W, Bradenton, FL 34210"
0x864c1bdd6fa74417:0x6d65852e35886667,https://www.google.com/maps/place//data=!4m2!3m1!1s0x864c1bdd6fa74417:0x6d65852e35886667?authuser=-1&hl=en&gl=us,33.0090199,-96.5916029,4.2,TX,Open ⋅ Closes 9PM,"Ulta Beauty, 3340 FM 544 Ste 890, Wylie, TX 75098"
0x864c217be6712961:0x125f822be582f448,https://www.google.com/maps/place//data=!4m2!3m1!1s0x864c217be6712961:0x125f822be582f448?authuser=-1&hl=en&gl=us,32.9339972,-96.82061329999999,4.4,TX,Closed ⋅ Opens 10AM Thu,"Ulta Beauty, 13710 Dallas Pkwy Ste D, Dallas, TX 75240"
0x89baeb17a20a61ff:0x5d91452e3e698ce4,https://www.google.com/maps/place//data=!4m2!3m1!1s0x89baeb17a20a61ff:0x5d91452e3e698ce4?authuser=-1&hl=en&gl=us,36.8485033,-76.0252685,4.6,VA,Open ⋅ Closes 8PM,"Ulta Beauty, 511 Hilltop Plaza, Virginia Beach, VA 23454"
0x89c2f9fd1572d30b:0xc681734d9e5cc1ae,https://www.google.com/maps/place//data=!4m2!3m1!1s0x89c2f9fd1572d30b:0xc681734d9e5cc1ae?authuser=-1&hl=en&gl=us,40.809357999999996,-74.06854299999999,3.2,NJ,Closed ⋅ Opens 11AM,"Ulta Beauty, 1 American Dream Way C339, East Rutherford, NJ 07073"
0x864c2f758f5ce065:0x32a9c6c522fc0e2f,https://www.google.com/maps/place//data=!4m2!3m1!1s0x864c2f758f5ce065:0x32a9c6c522fc0e2f?authuser=-1&hl=en&gl=us,33.0026004,-96.9802133,4.1,TX,Closed ⋅ Opens 10AM Tue,"Ulta Beauty, 420 E Round Grove Rd Ste 425, Lewisville, TX 75067"
0x89c2fb7923cf1bc1:0x44473272f4eea9b,https://www.google.com/maps/place//data=!4m2!3m1!1s0x89c2fb7923cf1bc1:0x44473272f4eea9b?authuser=-1&hl=en&gl=us,40.9555541,-74.0682772,4.6,NJ,Closed ⋅ Opens 10AM Tue,"Ulta Beauty, 1266 Paramus Park Mall, Paramus, NJ 07652"
0x80db43a819c3406d:0xcd744bd5111dd265,https://www.google.com/maps/place//data=!4m2!3m1!1s0x80db43a819c3406d:0xcd744bd5111dd265?authuser=-1&hl=en&gl=us,33.922185,-116.952546,4.3,CA,Open ⋅ Closes 8PM,"Ulta Beauty, 1545 E 2nd St Ste #100, Beaumont, CA 92223"
0x89e82bf6140baeed:0x8129aa8c05fac584,https://www.google.com/maps/place//data=!4m2!3m1!1s0x89e82bf6140baeed:0x8129aa8c05fac584?authuser=-1&hl=en&gl=us,40.7372417,-73.41860659999999,4.4,NY,Open ⋅ Closes 9PM,"Ulta Beauty, 206 Airport Plaza Blvd, Farmingdale, NY 11735"
0x89e6d16cb7a055d1:0xd4c12cb7d2dea352,https://www.google.com/maps/place//data=!4m2!3m1!1s0x89e6d16cb7a055d1:0xd4c12cb7d2dea352?authuser=-1&hl=en&gl=us,42.353834,-72.55335199999999,4.6,MA,Closed ⋅ Opens 10AM,"Ulta Beauty, 351 Russell St STE 40, Hadley, MA 01035"
0x8626b5c18a472f51:0xf76988396c99cad,https://www.google.com/maps/place//data=!4m2!3m1!1s0x8626b5c18a472f51:0xf76988396c99cad?authuser=-1&hl=en&gl=us,30.2320744,-90.90980569999999,4.2,LA,Closed ⋅ Opens 10AM,"Ulta Beauty, 115 S Airline Hwy # C, Gonzales, LA 70737"
0x8640c7cb4370df9b:0x7b80fe395f38c50e,https://www.google.com/maps/place//data=!4m2!3m1!1s0x8640c7cb4370df9b:0x7b80fe395f38c50e?authuser=-1&hl=en&gl=us,29.8096489,-95.4540792,3.9,TX,Open ⋅ Closes 6PM,"Ulta Beauty, 4514 Dacoma St STE 100, Houston, TX 77092"
0x880e57b87a85e763:0x820b50c20d04778,https://www.google.com/maps/place//data=!4m2!3m1!1s0x880e57b87a85e763:0x820b50c20d04778?authuser=-1&hl=en&gl=us,41.773699,-88.148139,3.8,IL,Closed ⋅ Opens 10AM Sat,"Ulta Beauty, 103 S Washington St Ste 109, Naperville, IL 60540"
0x8745627826b205a7:0xa51ac3ac6c281b6a,https://www.google.com/maps/place//data=!4m2!3m1!1s0x8745627826b205a7:0xa51ac3ac6c281b6a?authuser=-1&hl=en&gl=us,40.4370134,-109.5664844,4.4,UT,Closed ⋅ Opens 10AM Tue,"Ulta Beauty, 2017 U.S. Hwy 191, US-40, Vernal, UT 84078"
0x88847d011708b257:0x7106d32a68da553c,https://www.google.com/maps/place//data=!4m2!3m1!1s0x88847d011708b257:0x7106d32a68da553c?authuser=-1&hl=en&gl=us,32.364669299999996,-88.6739127,4.4,MS,Closed ⋅ Opens 10AM,"Ulta Beauty, 133 S Frontage Rd Ste 106, Meridian, MS 39301"
0x7c0015742be7c589:0xa6f432ddffe2b5e2,https://www.google.com/maps/place//data=!4m2!3m1!1s0x7c0015742be7c589:0xa6f432ddffe2b5e2?authuser=-1&hl=en&gl=us,21.3935824,-157.7420879,4.4,HI,Open ⋅ Closes 8PM,"Ulta Beauty, 609 Kailua Rd Ste 106, Kailua, HI 96734"
0x880f99997809f01d:0x23c8080052b667f1,https://www.google.com/maps/place//data=!4m2!3m1!1s0x880f99997809f01d:0x23c8080052b667f1?authuser=-1&hl=en&gl=us,42.283102199999995,-88.0436792,4.3,IL,Open ⋅ Closes 8PM,"Ulta Beauty, 3050 W Illinois-60, Mundelein, IL 60060"
0x80c291baa2d8114f:0x37cf09934731a395,https://www.google.com/maps/place//data=!4m2!3m1!1s0x80c291baa2d8114f:0x37cf09934731a395?authuser=-1&hl=en&gl=us,34.257926999999995,-118.46642899999999,4.2,CA,Closed ⋅ Opens 10AM,"Ulta Beauty, 10310 Sepulveda Blvd, Mission Hills, CA 91345"
0x876c6c4493d4fc1f:0xda60de8fd444ca75,https://www.google.com/maps/place//data=!4m2!3m1!1s0x876c6c4493d4fc1f:0xda60de8fd444ca75?authuser=-1&hl=en&gl=us,39.954585699999996,-104.7821747,4.0,CO,Closed ⋅ Opens 10AM Mon,"Ulta Beauty, 2287 Prairie Center Pkwy, Brighton, CO 80601"
0x80ec1f120e132d8b:0xc17e88fa1dc68b3b,https://www.google.com/maps/place//data=!4m2!3m1!1s0x80ec1f120e132d8b:0xc17e88fa1dc68b3b?authuser=-1&hl=en&gl=us,34.6480981,-120.45912919999999,4.1,CA,Closed ⋅ Opens 11AM,"Ulta Beauty, 615 N H St, Lompoc, CA 93436"
0x864043ea8cb92a89:0xfa986a13fa787ea6,https://www.google.com/maps/place//data=!4m2!3m1!1s0x864043ea8cb92a89:0xfa986a13fa787ea6?authuser=-1&hl=en&gl=us,29.04938,-95.45772919999999,4.1,TX,Closed ⋅ Opens 11AM,"Ulta Beauty, 1102 TX-332 Ste 1102, Lake Jackson, TX 77566"
0x80ea43726e77319b:0x55459e94d1a5cc4e,https://www.google.com/maps/place//data=!4m2!3m1!1s0x80ea43726e77319b:0x55459e94d1a5cc4e?authuser=-1&hl=en&gl=us,35.3858706,-119.1054307,3.9,CA,Open ⋅ Closes 9PM,"Ulta Beauty, 9280 Rosedale Hwy Ste 200, Bakersfield, CA 93312"
0x88892218e9cd6499:0x421281dcaf386e1d,https://www.google.com/maps/place//data=!4m2!3m1!1s0x88892218e9cd6499:0x421281dcaf386e1d?authuser=-1&hl=en&gl=us,33.3758956,-86.8176831,3.2,AL,Permanently closed,"Ulta Beauty, 4371 Creekside Ave #121, Hoover, AL 35244"
0x80c29d92076f0621:0x3c28efe120cad609,https://www.google.com/maps/place//data=!4m2!3m1!1s0x80c29d92076f0621:0x3c28efe120cad609?authuser=-1&hl=en&gl=us,34.1887366,-118.5969671,4.1,CA,Open ⋅ Closes 9PM,"Ulta Beauty, 6500 Canoga Ave, Canoga Park, CA 91303"
0x89d375ed738685a1:0xf94796ad47550bf0,https://www.google.com/maps/place//data=!4m2!3m1!1s0x89d375ed738685a1:0xf94796ad47550bf0?authuser=-1&hl=en&gl=us,42.984461499999995,-78.6939459,4.0,NY,Open ⋅ Closes 9PM,"Ulta Beauty, 5043 Transit Rd, Buffalo, NY 14221"
0x8644d7378e955b4d:0x332ab1014d32203a,https://www.google.com/maps/place//data=!4m2!3m1!1s0x8644d7378e955b4d:0x332ab1014d32203a?authuser=-1&hl=en&gl=us,30.6295257,-97.697605,4.5,TX,Open ⋅ Closes 9PM,"Ulta Beauty, 1019 W University Ave SUITE 1005, Georgetown, TX 78628"
0x89c259f5cd286f9f:0xd7f304c78a07bf1d,https://www.google.com/maps/place//data=!4m2!3m1!1s0x89c259f5cd286f9f:0xd7f304c78a07bf1d?authuser=-1&hl=en&gl=us,40.749866,-73.98719849999999,4.5,NY,Closed ⋅ Opens 10AM,"Ulta Beauty, 51 W 34th St, New York, NY 10001"
0x88e8bc9c1cb8a9c9:0xc54af76cc3aa026e,https://www.google.com/maps/place//data=!4m2!3m1!1s0x88e8bc9c1cb8a9c9:0xc54af76cc3aa026e?authuser=-1&hl=en&gl=us,29.6581464,-82.41559319999999,3.8,FL,Closed ⋅ Opens 10AM Wed,"Ulta Beauty, 6843 W Newberry Rd, Gainesville, FL 32605"
0x89c22f83fd079ae7:0xee3529b535dd9bd7,https://www.google.com/maps/place//data=!4m2!3m1!1s0x89c22f83fd079ae7:0xee3529b535dd9bd7?authuser=-1&hl=en&gl=us,40.2922928,-74.034947,4.1,NJ,Closed ⋅ Opens 10AM Wed,"Ulta Beauty, 310 NJ-36 Suite 801, West Long Branch, NJ 07764"
0x89c2f590aa8b7d31:0x924a1bbe0afca374,https://www.google.com/maps/place//data=!4m2!3m1!1s0x89c2f590aa8b7d31:0x924a1bbe0afca374?authuser=-1&hl=en&gl=us,40.7836924,-73.831816,4.0,NY,Open ⋅ Closes 8PM,"Ulta Beauty, 13305 20th Ave, Queens, NY 11356"
0x880fc7af7a4e4e75:0x642cff114e6f4196,https://www.google.com/maps/place//data=!4m2!3m1!1s0x880fc7af7a4e4e75:0x642cff114e6f4196?authuser=-1&hl=en&gl=us,42.089644,-87.825229,3.7,IL,Permanently closed,"Ulta Beauty, 1940 Tower Dr, Glenview, IL 60026"
0x89e7ca02be0dbcf9:0x6ed41a5b33f76942,https://www.google.com/maps/place//data=!4m2!3m1!1s0x89e7ca02be0dbcf9:0x6ed41a5b33f76942?authuser=-1&hl=en&gl=us,41.5511611,-72.8076036,4.0,CT,Permanently closed,"Ulta Beauty, 470 Lewis Ave Ste 61, Meriden, CT 06451"
0x80dd2b9281580c83:0x35d93e9b1861b999,https://www.google.com/maps/place//data=!4m2!3m1!1s0x80dd2b9281580c83:0x35d93e9b1861b999?authuser=-1&hl=en&gl=us,33.8486652,-117.98759129999999,3.7,CA,Open ⋅ Closes 8PM,"Ulta Beauty, 8375 La Palma Ave, Buena Park, CA 90620"
0x80c285098a6816c5:0x24ddd9b0f48acba0,https://www.google.com/maps/place//data=!4m2!3m1!1s0x80c285098a6816c5:0x24ddd9b0f48acba0?authuser=-1&hl=en&gl=us,34.2769963,-118.57183359999999,4.0,CA,Closed ⋅ Opens 10AM Mon,"Ulta Beauty, 20045 Rinaldi St, Porter Ranch, CA 91326"
0x8846778196af8c1f:0xc43ccd2a2c7d31ec,https://www.google.com/maps/place//data=!4m2!3m1!1s0x8846778196af8c1f:0xc43ccd2a2c7d31ec?authuser=-1&hl=en&gl=us,38.4834272,-82.6533307,4.3,KY,Closed ⋅ Opens 12PM,"Ulta Beauty, 500 Winchester Ave Ste 142, Ashland, KY 41101"
0x89fb3123be2d306b:0xca5797c60119d611,https://www.google.com/maps/place//data=!4m2!3m1!1s0x89fb3123be2d306b:0xca5797c60119d611?authuser=-1&hl=en&gl=us,41.6702747,-70.2944495,4.3,MA,Closed ⋅ Opens 11AM Sun,"Ulta Beauty, 790 Iyannough Rd, Hyannis, MA 02601"
0x89e6e517a916a47b:0x8e88519f1e5b56e,https://www.google.com/maps/place//data=!4m2!3m1!1s0x89e6e517a916a47b:0x8e88519f1e5b56e?authuser=-1&hl=en&gl=us,41.991387499999995,-72.57936819999999,4.4,CT,Open ⋅ Closes 9PM,"Ulta Beauty, 25 Hazard Ave, Enfield, CT 06082"
0x8888a833c3af13fd:0x343c3567897354e5,https://www.google.com/maps/place//data=!4m2!3m1!1s0x8888a833c3af13fd:0x343c3567897354e5?authuser=-1&hl=en&gl=us,33.1959361,-87.5275008,4.1,AL,Closed ⋅ Opens 10AM Sat,"Ulta Beauty, 1800 McFarland Blvd E Ste 522, Tuscaloosa, AL 35404"
0x864c1d93a69f734b:0x6049a29eefbff700,https://www.google.com/maps/place//data=!4m2!3m1!1s0x864c1d93a69f734b:0x6049a29eefbff700?authuser=-1&hl=en&gl=us,32.953835999999995,-96.6134269,4.8,TX,Open ⋅ Closes 9PM,"Ulta Beauty, 180 Cedar Sage Dr, Garland, TX 75040"
0x89aa750d6d06b215:0xf9cdaa06e632d545,https://www.google.com/maps/place//data=!4m2!3m1!1s0x89aa750d6d06b215:0xf9cdaa06e632d545?authuser=-1&hl=en&gl=us,33.981418,-78.37789699999999,4.5,NC,Open ⋅ Closes 9PM,"Ulta Beauty, 135-1 Smith Ave, Shallotte, NC 28470"
0x864c11610741c9d3:0xa6082d6a86127e27,https://www.google.com/maps/place//data=!4m2!3m1!1s0x864c11610741c9d3:0xa6082d6a86127e27?authuser=-1&hl=en&gl=us,33.127107699999996,-96.6591705,4.3,TX,Closed ⋅ Opens 10AM,"Ulta Beauty, 190 E Stacy Rd Ste 2680, Allen, TX 75002"
0x89c8475a263725cf:0x4cd5cc2241ecad27,https://www.google.com/maps/place//data=!4m2!3m1!1s0x89c8475a263725cf:0x4cd5cc2241ecad27?authuser=-1&hl=en&gl=us,39.5845012,-76.9869648,4.5,MD,Open ⋅ Closes 8PM,"Ulta Beauty, 200 Clifton Blvd Ste E, Westminster, MD 21157"
0x88d9b49ad5a22fd9:0x1972e5c0120e5216,https://www.google.com/maps/place//data=!4m2!3m1!1s0x88d9b49ad5a22fd9:0x1972e5c0120e5216?authuser=-1&hl=en&gl=us,25.7910163,-80.13151599999999,4.4,FL,Permanently closed,"Ulta Beauty, 337 Lincoln Rd, Miami Beach, FL 33139"
0x88f8aa49f6a6da93:0xf5337c4e9e42e4b8,https://www.google.com/maps/place//data=!4m2!3m1!1s0x88f8aa49f6a6da93:0xf5337c4e9e42e4b8?authuser=-1&hl=en&gl=ae,34.1295614,-80.8764714,3.8,SC,Closed ⋅ Opens 10AM Tue,"Ulta Beauty, 214 Forum Dr, Columbia, SC 29229, United States"
0x89e3632d0b64029f:0xf8db66ec73c70f09,https://www.google.com/maps/place//data=!4m2!3m1!1s0x89e3632d0b64029f:0xf8db66ec73c70f09?authuser=-1&hl=en&gl=us,42.2500869,-70.9232244,4.1,MA,Open ⋅ Closes 8PM,"Ulta Beauty, 6 Shipyard Dr, Hingham, MA 02043"
0x80e940afbdae32e1:0xcd1f0ccb65b20372,https://www.google.com/maps/place//data=!4m2!3m1!1s0x80e940afbdae32e1:0xcd1f0ccb65b20372?authuser=-1&hl=en&gl=us,34.4294766,-119.8717597,4.1,CA,Closed ⋅ Opens 10AM,"Ulta Beauty, 7000 Market Pl Dr, Goleta, CA 93117"
0x8640dd16e03afb8d:0xe9bd757533133347,https://www.google.com/maps/place//data=!4m2!3m1!1s0x8640dd16e03afb8d:0xe9bd757533133347?authuser=-1&hl=en&gl=us,29.7322624,-95.62517899999999,3.8,TX,Closed ⋅ Opens 10AM Mon,"Ulta Beauty, 2732 Eldridge Pkwy Ste D, Houston, TX 77082"
0x89de09afb465d365:0x21bc75937afa9f90,https://www.google.com/maps/place//data=!4m2!3m1!1s0x89de09afb465d365:0x21bc75937afa9f90?authuser=-1&hl=en&gl=ae,42.6560109,-73.6898908,4.5,NY,Closed ⋅ Opens 10AM,"Ulta Beauty, 102 Van Rensselaer Square Suite 1, Rensselaer, NY 12144, United States"
0x52b45f0f2ed93f99:0x94a56b99e6c52723,https://www.google.com/maps/place//data=!4m2!3m1!1s0x52b45f0f2ed93f99:0x94a56b99e6c52723?authuser=-1&hl=en&gl=ae,45.556143299999995,-94.21000989999999,4.2,MN,Open ⋅ Closes 6PM,"Ulta Beauty, 4101 W Division St Ste 25, Waite Park, MN 56387, United States"
0x88e69d5ecda6858f:0x8789c8088c2ac29d,https://www.google.com/maps/place//data=!4m2!3m1!1s0x88e69d5ecda6858f:0x8789c8088c2ac29d?authuser=-1&hl=en&gl=ae,29.868993999999997,-81.32508779999999,4.2,FL,Closed ⋅ Opens 11AM,"Ulta Beauty, 1783 US-1, St. Augustine, FL 32084, United States"
0x889385f0f0a13739:0xd1b66ba01811dce5,https://www.google.com/maps/place//data=!4m2!3m1!1s0x889385f0f0a13739:0xd1b66ba01811dce5?authuser=-1&hl=en&gl=us,30.2233819,-85.8669348,3.8,FL,Open ⋅ Closes 9PM,"Ulta Beauty, 15600 Panama City Beach Pkwy, Panama City Beach, FL 32413"
0x89a9f5ab2e82540d:0xf69a95cec7025765,https://www.google.com/maps/place//data=!4m2!3m1!1s0x89a9f5ab2e82540d:0xf69a95cec7025765?authuser=-1&hl=en&gl=us,34.2140692,-77.9060264,4.6,NC,Closes soon ⋅ 9PM ⋅ Opens 11AM Sun,"Ulta Beauty, 3500 Oleander Dr Space R060, Wilmington, NC 28403"
0x864e794e3801c82f:0x8702030325ab5c28,https://www.google.com/maps/place//data=!4m2!3m1!1s0x864e794e3801c82f:0x8702030325ab5c28?authuser=-1&hl=en&gl=ae,32.8264181,-97.2005073,3.6,TX,Open ⋅ Closes 9PM,"Ulta Beauty, 880 NE Mall Blvd, Hurst, TX 76053, United States"
0x88d9c791124ae941:0xc52faa7aa12527b3,https://www.google.com/maps/place//data=!4m2!3m1!1s0x88d9c791124ae941:0xc52faa7aa12527b3?authuser=-1&hl=en&gl=us,25.6613938,-80.32497889999999,4.4,FL,Open ⋅ Closes 9PM,"Ulta Beauty, 11751 S Dixie Hwy, Miami, FL 33156"
0x87e444732f66fd47:0x8937a7df838de1cb,https://www.google.com/maps/place//data=!4m2!3m1!1s0x87e444732f66fd47:0x8937a7df838de1cb?authuser=-1&hl=en&gl=us,41.691596499999996,-91.6049156,4.2,IA,Open ⋅ Closes 9PM,"Ulta Beauty, 1451 Coral Ridge Ave Ste 1950, Coralville, IA 52241"
0x54900dfa59fa734f:0x7dd6b1c56e0c5d9,https://www.google.com/maps/place//data=!4m2!3m1!1s0x54900dfa59fa734f:0x7dd6b1c56e0c5d9?authuser=-1&hl=en&gl=us,47.7531952,-122.1515659,4.1,WA,Closed ⋅ Opens 10AM,"Ulta Beauty, 14019 NE Woodinville Duvall Rd, Woodinville, WA 98072"
0x89c3e17a94f96725:0x307c9fb4c397f981,https://www.google.com/maps/place//data=!4m2!3m1!1s0x89c3e17a94f96725:0x307c9fb4c397f981?authuser=-1&hl=en&gl=us,40.3055307,-74.67995669999999,4.2,NJ,Closed ⋅ Opens 10AM,"Ulta Beauty, 540 Nassau Park Blvd, Princeton, NJ 08540"
0x864c88eec6fc7f0f:0xb4e228a6cb419601,https://www.google.com/maps/place//data=!4m2!3m1!1s0x864c88eec6fc7f0f:0xb4e228a6cb419601?authuser=-1&hl=en&gl=ae,33.6805654,-96.6049164,4.1,TX,Closed ⋅ Opens 10AM,"Ulta Beauty, 4115 N Hwy 75, Sherman, TX 75090, United States"
0x89de30c8a8f69883:0xe6e09c879eed0716,https://www.google.com/maps/place//data=!4m2!3m1!1s0x89de30c8a8f69883:0xe6e09c879eed0716?authuser=-1&hl=en&gl=us,43.103389,-73.7379377,4.0,NY,Closed ⋅ Opens 10AM Sat,"Ulta Beauty, 3065 NY-50 Spc B100, Saratoga Springs, NY 12866"
0x883884f2d74bacb5:0x6e75affcc84a72ac,https://www.google.com/maps/place//data=!4m2!3m1!1s0x883884f2d74bacb5:0x6e75affcc84a72ac?authuser=-1&hl=en&gl,39.8765917,-83.0448952,4.2,OH,Open ⋅ Closes 9PM,"Ulta Beauty, 1711 Stringtown Rd, Grove City, OH 43123"
0x80c29fcfdcdff34d:0x3a056477869b22d8,https://www.google.com/maps/place//data=!4m2!3m1!1s0x80c29fcfdcdff34d:0x3a056477869b22d8?authuser=-1&hl=en&gl=us,34.1556803,-118.64501609999999,4.4,CA,Closed ⋅ Opens 10AM,"Ulta Beauty, 23741 Calabasas Rd Ste A, Calabasas, CA 91302"
0x88fa47413d0e09b1:0x316e320f01b3a53a,https://www.google.com/maps/place//data=!4m2!3m1!1s0x88fa47413d0e09b1:0x316e320f01b3a53a?authuser=-1&hl=en&gl,32.4296341,-81.7612508,4.3,GA,Closed ⋅ Opens 10AM,"Ulta Beauty, 379 Henry Blvd, Statesboro, GA 30458"
0x88f54f776e158bf3:0x9bc6edd9c227f86c,https://www.google.com/maps/place//data=!4m2!3m1!1s0x88f54f776e158bf3:0x9bc6edd9c227f86c?authuser=-1&hl=en&gl=ae,34.172610299999995,-84.78484139999999,4.3,GA,Closed ⋅ Opens 10AM,"Ulta Beauty, 200 Cherokee Pl, Cartersville, GA 30121, United States"
0x87df37e603946bed:0x9ec830f9cba03cb7,https://www.google.com/maps/place//data=!4m2!3m1!1s0x87df37e603946bed:0x9ec830f9cba03cb7?authuser=-1&hl=en&gl=us,38.8058421,-90.3087932,4.2,MO,Open ⋅ Closes 9PM,"Ulta Beauty, 2419 N Hwy 67, Florissant, MO 63033"
0x8805a5e7df5597d7:0x308dadda55a555b9,https://www.google.com/maps/place//data=!4m2!3m1!1s0x8805a5e7df5597d7:0x308dadda55a555b9?authuser=-1&hl=en&gl=us,42.9915533,-88.2557581,4.3,WI,Open ⋅ Closes 9PM,"Ulta Beauty, 1160 W Sunset Dr Ste 134, Waukesha, WI 53189"
0x80db1c92a60009b7:0x3e6fcabf0c041398,https://www.google.com/maps/place//data=!4m2!3m1!1s0x80db1c92a60009b7:0x3e6fcabf0c041398?authuser=-1&hl=en&gl=us,33.8165711,-116.4912303,4.5,CA,Open ⋅ Closes 9PM,"Ulta Beauty, 5200 Ramon Rd, Palm Springs, CA 92264"
0x880fbb08b30978c1:0xf78f3c2da1d5ca90,https://www.google.com/maps/place//data=!4m2!3m1!1s0x880fbb08b30978c1:0xf78f3c2da1d5ca90?authuser=-1&hl=en&gl=us,42.1112484,-87.9762303,2.9,IL,Permanently closed,"Ulta Beauty, 456 E Rand Rd, Arlington Heights, IL 60004"
0x89c6a5d33ba94bdb:0x4985e8d4b7cbd2da,https://www.google.com/maps/place//data=!4m2!3m1!1s0x89c6a5d33ba94bdb:0x4985e8d4b7cbd2da?authuser=-1&hl=en&gl=us,40.2395488,-75.240454,4.3,PA,Open ⋅ Closes 9PM,"Ulta Beauty, 10 Airport Square, North Wales, PA 19454"
0x874d9afa7e46e697:0xaf5ba3db378a2e4c,https://www.google.com/maps/place//data=!4m2!3m1!1s0x874d9afa7e46e697:0xaf5ba3db378a2e4c?authuser=-1&hl=en&gl=ae,40.274577,-111.6895553,3.7,UT,Closed ⋅ Opens 10AM,"Ulta Beauty, 303 E University Pkwy, Orem, UT 84097, United States"
0x80dce8fa0359425d:0x46aab3dcd793594e,https://www.google.com/maps/place//data=!4m2!3m1!1s0x80dce8fa0359425d:0x46aab3dcd793594e?authuser=-1&hl=en&gl,33.6188174,-117.7004468,3.8,CA,Closed ⋅ Opens 10AM,"Ulta Beauty, 23608 El Toro Rd, Lake Forest, CA 92630"
0x88f3e13747cfd28d:0x4cd6dbd2fb5371aa,https://www.google.com/maps/place//data=!4m2!3m1!1s0x88f3e13747cfd28d:0x4cd6dbd2fb5371aa?authuser=-1&hl=en&gl,32.621929099999996,-83.66826089999999,4.1,GA,Closed ⋅ Opens 10AM,"Ulta Beauty, 2620 Watson Blvd Ste 2A, Warner Robins, GA 31093"
0x86409900c7cb7d8d:0x3b1bab3daf6ff21e,https://www.google.com/maps/place//data=!4m2!3m1!1s0x86409900c7cb7d8d:0x3b1bab3daf6ff21e?authuser=-1&hl=en&gl=us,29.646548,-95.15415229999999,4.2,TX,Closed ⋅ Opens 10AM Thu,"Ulta Beauty, 5696 Fairmont Pkwy, Pasadena, TX 77505"
0x89c6c7b40610d7eb:0x849f3b8b3b380a53,https://www.google.com/maps/place//data=!4m2!3m1!1s0x89c6c7b40610d7eb:0x849f3b8b3b380a53?authuser=-1&hl=en&gl=us,39.95201,-75.15772,4.2,PA,Closed ⋅ Opens 10AM Thu,"Ulta Beauty, 1021 Market St # 1175, Philadelphia, PA 19107"
0x87b26b79d8dfe8e7:0xd5fe9c6f735cde3b,https://www.google.com/maps/place//data=!4m2!3m1!1s0x87b26b79d8dfe8e7:0xd5fe9c6f735cde3b?authuser=-1&hl=en&gl,35.3177824,-97.5024523,4.4,OK,Open ⋅ Closes 8PM,"Ulta Beauty, 790 SW 19th St Ste B, Moore, OK 73160"
0x80857e13ff1e5f43:0xde648abea14b40a8,https://www.google.com/maps/place//data=!4m2!3m1!1s0x80857e13ff1e5f43:0xde648abea14b40a8?authuser=-1&hl=en&gl,37.8286894,-122.2822357,4.2,CA,Open ⋅ Closes 8PM,"Ulta Beauty, 3839 Emery St Ste 200, Emeryville, CA 94608"
0x888a0323e016f07d:0x2cc24d39a9db25c1,https://www.google.com/maps/place//data=!4m2!3m1!1s0x888a0323e016f07d:0x2cc24d39a9db25c1?authuser=-1&hl=en&gl=us,34.2778266,-86.2037154,5.0,AL,Open ⋅ Closes 8PM,"Ulta Beauty, 7200 Florida Short Route, 200 US-431 Ste, Albertville, AL 35951"
0x89e7c103b44769df:0x654ac80919fd6c09,https://www.google.com/maps/place//data=!4m2!3m1!1s0x89e7c103b44769df:0x654ac80919fd6c09?authuser=-1&hl=en&gl=us,41.5533948,-73.0326932,4.1,CT,Closed ⋅ Opens 10AM,"Ulta Beauty, 255 Union St, Waterbury, CT 06706"
0x864e6d2fd9580217:0xf02238785342323d,https://www.google.com/maps/place//data=!4m2!3m1!1s0x864e6d2fd9580217:0xf02238785342323d?authuser=-1&hl=en&gl=us,32.6039332,-97.4101611,3.6,TX,Closed ⋅ Opens 10AM,"Ulta Beauty, 5553 Sierra Springs Ln, Fort Worth, TX 76123"
0x89c2866d1deb70bf:0xb5bf19c6cfe49c41,https://www.google.com/maps/place//data=!4m2!3m1!1s0x89c2866d1deb70bf:0xb5bf19c6cfe49c41?authuser=-1&hl=en&gl=us,40.8099937,-73.62769999999999,4.2,NY,Permanently closed,"Ulta Beauty, 30 Glen Cove Rd, Greenvale, NY 11548"
0x89b7c96e814a6a5b:0x370df137084f7bf2,https://www.google.com/maps/place//data=!4m2!3m1!1s0x89b7c96e814a6a5b:0x370df137084f7bf2?authuser=-1&hl=en&gl=us,38.996015899999996,-77.0249985,4.3,MD,Closed ⋅ Opens 10AM,"Ulta Beauty, 8510 Fenton St, Silver Spring, MD 20910"
0x8817ee6fc7fba571:0xcb2a36eac5257f38,https://www.google.com/maps/place//data=!4m2!3m1!1s0x8817ee6fc7fba571:0xcb2a36eac5257f38?authuser=-1&hl=en&gl=us,42.2646063,-85.1777379,4.1,MI,Closed ⋅ Opens 10AM,"Ulta Beauty, 12765 Harper Village Dr Suite 150, Battle Creek, MI 49014"
0x87471d3a23a94051:0x5d32d92f5446718b,https://www.google.com/maps/place//data=!4m2!3m1!1s0x87471d3a23a94051:0x5d32d92f5446718b?authuser=-1&hl=en&gl=kr,39.096709499999996,-108.60513069999999,4.3,CO,Open ⋅ Closes 8PM,"Ulta Beauty, 632 Market St #500, Grand Junction, CO 81505, United States"
0x80c2cc19697ba4cf:0x8d8cf9c32a11dad4,https://www.google.com/maps/place//data=!4m2!3m1!1s0x80c2cc19697ba4cf:0x8d8cf9c32a11dad4?authuser=-1&hl=en&gl=kr,33.9544478,-118.18671429999999,4.1,CA,Closed ⋅ Opens 10AM,"Ulta Beauty, 4681 Firestone Blvd, South Gate, CA 90280, United States"
0x863f59569ede4915:0xae09e05f286c703b,https://www.google.com/maps/place//data=!4m2!3m1!1s0x863f59569ede4915:0xae09e05f286c703b?authuser=-1&hl=en&gl=us,29.7935767,-94.9830927,4.0,TX,Open ⋅ Closes 8PM,"Ulta Beauty, 6345 Garth Rd #130, Baytown, TX 77521"
0x8890c011574c2c31:0x2f2089b26c7aa75d,https://www.google.com/maps/place//data=!4m2!3m1!1s0x8890c011574c2c31:0x2f2089b26c7aa75d?authuser=-1&hl=en&gl=kr,30.4813907,-87.20770759999999,4.1,FL,Closed ⋅ Opens 10AM Mon,"Ulta Beauty, 1650 Airport Blvd, Pensacola, FL 32504, United States"
0x808de493b5644441:0x18e17ea68cebea9e,https://www.google.com/maps/place//data=!4m2!3m1!1s0x808de493b5644441:0x18e17ea68cebea9e?authuser=-1&hl=en&gl=kr,36.6220687,-121.84228359999999,3.8,CA,Closed ⋅ Opens 10AM Mon,"Ulta Beauty, 2080 California Ave, Sand City, CA 93955, United States"
0x8626bf6d42ff525b:0xf3a4a802a107a0c6,https://www.google.com/maps/place//data=!4m2!3m1!1s0x8626bf6d42ff525b:0xf3a4a802a107a0c6?authuser=-1&hl=en&gl=us,30.4669992,-90.9207017,4.2,LA,Closes soon ⋅ 6PM ⋅ Opens 10AM Mon,"Ulta Beauty, 10129 Crossing Way Ste 410, Denham Springs, LA 70726"
0x88582b439b10c11b:0x4830bbc944c714de,https://www.google.com/maps/place//data=!4m2!3m1!1s0x88582b439b10c11b:0x4830bbc944c714de?authuser=-1&hl=en&gl=us,34.9423242,-82.2625485,4.1,SC,Open ⋅ Closes 6PM,"Ulta Beauty, 1316 W Wade Hampton Blvd Ste B, Greer, SC 29650"
0x89c61d3da7817d7f:0x99158e228819ae01,https://www.google.com/maps/place//data=!4m2!3m1!1s0x89c61d3da7817d7f:0x99158e228819ae01?authuser=-1&hl=en&gl=us,40.3189539,-76.4260479,4.3,PA,Open ⋅ Closes 6PM,"Ulta Beauty, 1301 Quentin Rd Ste 100, Lebanon, PA 17042"
0x533495e641aa6e71:0xcb788f90b8c056ae,https://www.google.com/maps/place//data=!4m2!3m1!1s0x533495e641aa6e71:0xcb788f90b8c056ae?authuser=-1&hl=en&gl=us,44.2745533,-105.498059,4.8,WY,Closed ⋅ Opens 11AM,"Ulta Beauty, 2150 S Douglas Hwy Ste 110, Gillette, WY 82718"
0x8824a22f7134e217:0x5c3c45d1846df803,https://www.google.com/maps/place//data=!4m2!3m1!1s0x8824a22f7134e217:0x5c3c45d1846df803?authuser=-1&hl=en&gl=kr,42.6480263,-83.5007935,4.2,MI,Closed ⋅ Opens 11AM,"Ulta Beauty, 10805 Highland Rd, White Lake, MI 48386, United States"
0x88169eaf42edb957:0x9bcd07671f44bd49,https://www.google.com/maps/place//data=!4m2!3m1!1s0x88169eaf42edb957:0x9bcd07671f44bd49?authuser=-1&hl=en&gl=us,41.2790661,-85.8551007,4.4,IN,Closed ⋅ Opens 11AM,"Ulta Beauty, 600 W 300 N, Warsaw, IN 46582"
0x880f2a3599e32235:0x78d70e95b48bca4c,https://www.google.com/maps/place//data=!4m2!3m1!1s0x880f2a3599e32235:0x78d70e95b48bca4c?authuser=-1&hl=en&gl=us,41.947277,-88.72423979999999,4.2,IL,Open ⋅ Closes 9PM,"Ulta Beauty, 2064 Sycamore Rd, DeKalb, IL 60115"
0x886075331e6ff26d:0xbe86a29a0102542b,https://www.google.com/maps/place//data=!4m2!3m1!1s0x886075331e6ff26d:0xbe86a29a0102542b?authuser=-1&hl=en&gl=us,34.7607973,-84.99358319999999,4.4,GA,Open ⋅ Closes 9PM,"Ulta Beauty, 1310 W Walnut Ave Ste 1, Dalton, GA 30720"
0x878eb391e3bc762f:0x93a75472f6356722,https://www.google.com/maps/place//data=!4m2!3m1!1s0x878eb391e3bc762f:0x93a75472f6356722?authuser=-1&hl=en&gl=kr,43.5425026,-96.65495969999999,4.5,SD,Closed ⋅ Opens 10AM,"Ulta Beauty, 621 S Highline Pl, Sioux Falls, SD 57110, United States"
0x4cca796c462e7503:0xf6b405e6de72a08f,https://www.google.com/maps/place//data=!4m2!3m1!1s0x4cca796c462e7503:0xf6b405e6de72a08f?authuser=-1&hl=en&gl=us,44.446067799999994,-73.11023229999999,4.2,VT,Closed ⋅ Opens 10AM,"Ulta Beauty, 41 Hawthorne St, Williston, VT 05495"
0x4cb203d7a345bdeb:0x3c5b1e7bb59a7e9e,https://www.google.com/maps/place//data=!4m2!3m1!1s0x4cb203d7a345bdeb:0x3c5b1e7bb59a7e9e?authuser=-1&hl=en&gl=kr,44.344868399999996,-69.7872366,4.4,ME,Open ⋅ Closes 8PM,"Ulta Beauty, 10 Stephen King Dr, Augusta, ME 04330, United States"
0x888925f3a96abce1:0x4be2f1d433222891,https://www.google.com/maps/place//data=!4m2!3m1!1s0x888925f3a96abce1:0x4be2f1d433222891?authuser=-1&hl=en&gl=us,33.2258013,-86.8046066,4.2,AL,Open ⋅ Closes 8PM,"Ulta Beauty, 100 S Colonial Dr Ste 2400, Alabaster, AL 35007"
0x864c394f020aaa49:0x20e59a02a019a45d,https://www.google.com/maps/place//data=!4m2!3m1!1s0x864c394f020aaa49:0x20e59a02a019a45d?authuser=-1&hl=en&gl=us,33.1732418,-96.8435038,3.9,TX,Closed ⋅ Opens 10AM,"Ulta Beauty, 4995 Eldorado Pkwy Ste 300, Frisco, TX 75034"
0x876c766470d23375:0x81706d5842938edb,https://www.google.com/maps/place//data=!4m2!3m1!1s0x876c766470d23375:0x81706d5842938edb?authuser=-1&hl=en&gl=us,39.887377699999995,-104.99182599999999,2.4,CO,Permanently closed,"Ulta Beauty, 421 W 104th Ave, Northglenn, CO 80234"
0x5342381c6ddf30e3:0xfbe922695b89d6de,https://www.google.com/maps/place//data=!4m2!3m1!1s0x5342381c6ddf30e3:0xfbe922695b89d6de?authuser=-1&hl=en&gl=us,47.5182009,-111.3156049,4.1,MT,Closed ⋅ Opens 10AM,"Ulta Beauty, 209 NW Bypass STE 2, Great Falls, MT 59404"
0x872b16a68b8e62d1:0x7d7cf67a7c53d8a3,https://www.google.com/maps/place//data=!4m2!3m1!1s0x872b16a68b8e62d1:0x7d7cf67a7c53d8a3?authuser=-1&hl=en&gl=us,33.4233088,-112.1597755,3.5,AZ,Permanently closed,"Ulta Beauty, 4570 W Lower Buckeye Rd Suite 150, Phoenix, AZ 85043"
0x808fe985ad5d01df:0x20e8c372f20b006c,https://www.google.com/maps/place//data=!4m2!3m1!1s0x808fe985ad5d01df:0x20e8c372f20b006c?authuser=-1&hl=en&gl=us,37.6963122,-121.84758679999999,4.3,CA,Closes soon ⋅ 8PM ⋅ Opens 10AM Tue,"Ulta Beauty, 3090 W Jack London Blvd, Livermore, CA 94551"
0x88d91958f9f6f4ab:0x111e84f49744687d,https://www.google.com/maps/place//data=!4m2!3m1!1s0x88d91958f9f6f4ab:0x111e84f49744687d?authuser=-1&hl=en&gl=us,26.3649804,-80.2021671,4.0,FL,Open ⋅ Closes 8PM,"Ulta Beauty, 9882 Glades Rd, Boca Raton, FL 33434"
0x880fa30ab6b747f3:0x2a88bf8178a2c164,https://www.google.com/maps/place//data=!4m2!3m1!1s0x880fa30ab6b747f3:0x2a88bf8178a2c164?authuser=-1&hl=en&gl=us,42.1627745,-88.0507824,3.8,IL,Open ⋅ Closes 9PM,"Ulta Beauty, 20505 N Rand Rd Suite 220, Kildeer, IL 60047"
0x89b7b873f4bb3653:0x2279dc47461cd2d8,https://www.google.com/maps/place//data=!4m2!3m1!1s0x89b7b873f4bb3653:0x2279dc47461cd2d8?authuser=-1&hl=en&gl=us,38.915656,-76.983087,4.5,WA,Permanently closed,"Ulta Beauty, 2003 Hecht Ave NE, Washington, DC 20002"
0x89b7633b0309cef7:0x3be7662a577800f0,https://www.google.com/maps/place//data=!4m2!3m1!1s0x89b7633b0309cef7:0x3be7662a577800f0?authuser=-1&hl=en&gl=us,38.310634199999996,-76.5356367,4.6,MD,Closed ⋅ Opens 10AM,"Ulta Beauty, 23415 Three Notch Rd Ste 2035, California, MD 20619"
0x89e45d7b5d17823b:0x633fc817a20dc197,https://www.google.com/maps/place//data=!4m2!3m1!1s0x89e45d7b5d17823b:0x633fc817a20dc197?authuser=-1&hl=en&gl=us,41.940071599999996,-71.3455078,4.2,MA,Closed ⋅ Opens 10AM,"Ulta Beauty, 1360 S Washington St #1, North Attleborough, MA 02760"
0x808f86a51b871b89:0xb32edb857537adcf,https://www.google.com/maps/place//data=!4m2!3m1!1s0x808f86a51b871b89:0xb32edb857537adcf?authuser=-1&hl=en&gl=us,37.7569559,-122.25013039999999,4.1,CA,Closed ⋅ Opens 10AM Mon,"Ulta Beauty, 2245 S Shore Center, Alameda, CA 94501"
0x89c99ef4abfbecc7:0xc711aac2e48817ae,https://www.google.com/maps/place//data=!4m2!3m1!1s0x89c99ef4abfbecc7:0xc711aac2e48817ae?authuser=-1&hl=en&gl=us,39.925702,-77.6301543,4.4,PA,Closed ⋅ Opens 10AM Mon,"Ulta Beauty, 1320 Lincoln Way E, Chambersburg, PA 17202"
0x89e88aac23f7f23f:0x49ab9cf0a87c873,https://www.google.com/maps/place//data=!4m2!3m1!1s0x89e88aac23f7f23f:0x49ab9cf0a87c873?authuser=-1&hl=en&gl=us,40.9257558,-72.7034474,4.4,NY,Closed ⋅ Opens 10AM Mon,"Ulta Beauty, 1738 Old Country Rd, Riverhead, NY 11901"
0x80dd4b91504c62b1:0xb3cc9dca79aa311d,https://www.google.com/maps/place//data=!4m2!3m1!1s0x80dd4b91504c62b1:0xb3cc9dca79aa311d?authuser=-1&hl=en&gl=us,33.7740152,-118.37598759999999,4.3,CA,Open ⋅ Closes 6PM,"Ulta Beauty, 51 Peninsula Center Ste A, Rolling Hills Estates, CA 90274"
0x883ef3a61fd8283b:0x8e94dd5107d09edc,https://www.google.com/maps/place//data=!4m2!3m1!1s0x883ef3a61fd8283b:0x8e94dd5107d09edc?authuser=-1&hl=en&gl=us,40.768312,-84.1553576,4.3,OH,Open ⋅ Closes 6PM,"Ulta Beauty, 2720 Elida Rd Ste 180, Lima, OH 45805"
0x87b6f1e3d067ff7d:0x11d955f4a804eb54,https://www.google.com/maps/place//data=!4m2!3m1!1s0x87b6f1e3d067ff7d:0x11d955f4a804eb54?authuser=-1&hl=en&gl=us,36.2904072,-95.84346289999999,4.3,OK,Closed ⋅ Opens 11AM,"Ulta Beauty, 9018 N 121st E Ave Ste 500, Owasso, OK 74055"
0x87df2abea993cd4f:0xf937b38a41d537bc,https://www.google.com/maps/place//data=!4m2!3m1!1s0x87df2abea993cd4f:0xf937b38a41d537bc?authuser=-1&hl=en&gl=us,38.6665248,-90.5866769,3.9,MO,Closed ⋅ Opens 11AM Sun,"Ulta Beauty, 46 THF Blvd, Chesterfield, MO 63005"
0x80dd2e536f430ea9:0xb56fc5d02329aa45,https://www.google.com/maps/place//data=!4m2!3m1!1s0x80dd2e536f430ea9:0xb56fc5d02329aa45?authuser=-1&hl=en&gl=us,33.7831967,-118.0736742,4.5,CA,Closed ⋅ Opens 11AM Sun,"Ulta Beauty, 12339 Seal Beach Blvd, Seal Beach, CA 90740"
0x89e6778725d32203:0xe5f89de21172ad5e,https://www.google.com/maps/place//data=!4m2!3m1!1s0x89e6778725d32203:0xe5f89de21172ad5e?authuser=-1&hl=en&gl=us,41.5848133,-71.99285669999999,4.2,CT,Closed ⋅ Opens 11AM Sun,"Ulta Beauty, 160 River Rd Ste A-140, Lisbon, CT 06351"
0x89c4727e09899fd1:0x5e9a64ab3765ec2,https://www.google.com/maps/place//data=!4m2!3m1!1s0x89c4727e09899fd1:0x5e9a64ab3765ec2?authuser=-1&hl=en&gl=us,40.6773874,-75.14879189999999,4.2,NJ,Closed ⋅ Opens 11AM Sun,"Ulta Beauty, 1240 US-22, Phillipsburg, NJ 08865"
0x89e405bbeed21f7f:0xfa1bae7dae7677d2,https://www.google.com/maps/place//data=!4m2!3m1!1s0x89e405bbeed21f7f:0xfa1bae7dae7677d2?authuser=-1&hl=en&gl=us,42.1966482,-71.7791949,3.9,MA,Open ⋅ Closes 9PM,"Ulta Beauty, 70 Worcester-Providence Turnpike Ste 250, Millbury, MA 01527"
0x89acf761a874832d:0x111803f8757a81e0,https://www.google.com/maps/place//data=!4m2!3m1!1s0x89acf761a874832d:0x111803f8757a81e0?authuser=-1&hl=en&gl=us,35.8590715,-78.70172199999999,4.2,NC,Open ⋅ Closes 9PM,"Ulta Beauty, 6250 Glenwood Ave Ste 104, Raleigh, NC 27612"
